Business_Alias,Business_ID,Business_Name,Category_Alias,Category_Title,Latitude,Longitude,Display_Phone,Phone,Distance,Image_URL,Is_Closed,Address_Line1,Address_Line2,Address_Line3,City,State,Country,ZipCode,Rating,Review_Count,Transactions,Business_URL
mimis-barbacoa-tacos-tamales-y-mas-too-san-antonio,oyb3I2GJynOpbjOZ5ZUuPw,Mimi's Barbacoa Tacos Tamales Y Mas Too,mexican,Mexican,29.45109317,-98.53983857,(210) 731-9977,12107319977,10978.26913,https://s3-media3.fl.yelpcdn.com/bphoto/wghAALyRIU01ZkUqf4INvQ/o.jpg,FALSE,1901 Cincinnati,,,San Antonio,TX,US,78228,3,2,[],https://www.yelp.com/biz/mimis-barbacoa-tacos-tamales-y-mas-too-san-antonio?adjust_creative=xtj4insboBfq4s67lBIAxA&utm_campaign=yelp_api_v3&utm_medium=api_v3_business_search&utm_source=xtj4insboBfq4s67lBIAxA
las-pinchanchas-san-antonio,PG4BWVROxcu35GJaBmTHCg,Las Pinchanchas,mexican,Mexican,29.44695091,-98.50862885,(210) 735-3715,12107353715,9343.851506,https://s3-media1.fl.yelpcdn.com/bphoto/QnIn8IC-4q1v9vdSgmJaJw/o.jpg,FALSE,450 Fredericksburg Rd,,,San Antonio,TX,US,78201,4,16,[],https://www.yelp.com/biz/las-pinchanchas-san-antonio?adjust_creative=xtj4insboBfq4s67lBIAxA&utm_campaign=yelp_api_v3&utm_medium=api_v3_business_search&utm_source=xtj4insboBfq4s67lBIAxA
taqueria-jalisco-no-13-san-antonio,I_3GXTVMntM7fRnrTaAqZA,Taqueria Jalisco No 13,hotdogs,Fast Food,29.481737,-98.542549,(210) 733-5044,12107335044,9305.908139,https://s3-media4.fl.yelpcdn.com/bphoto/h7qEm3jtdBEymZMm5r9b2Q/o.jpg,FALSE,3822 Fredericksburg Rd,,,San Antonio,TX,US,78201,5,8,[],https://www.yelp.com/biz/taqueria-jalisco-no-13-san-antonio?adjust_creative=xtj4insboBfq4s67lBIAxA&utm_campaign=yelp_api_v3&utm_medium=api_v3_business_search&utm_source=xtj4insboBfq4s67lBIAxA
gorditas-doña-tota-san-antonio-3,5V6T8d9bBhBq80GFbM7Xzg,Gorditas Doña Tota,mexican,Mexican,29.5098521,-98.4994149,(210) 375-0005,12103750005,4357.702197,https://s3-media4.fl.yelpcdn.com/bphoto/SZgyX2BLy4Y5fqiy9qPnHQ/o.jpg,FALSE,7053 San Pedro Ave,,,San Antonio,TX,US,78216,3.5,59,[],https://www.yelp.com/biz/gorditas-do%C3%B1a-tota-san-antonio-3?adjust_creative=xtj4insboBfq4s67lBIAxA&utm_campaign=yelp_api_v3&utm_medium=api_v3_business_search&utm_source=xtj4insboBfq4s67lBIAxA
el-manantial-mexican-restaurant-san-antonio,HTuOCsXSsA5TuIZzQUIPow,El Manantial Mexican Restaurant,mexican,Mexican,29.46622,-98.51353,(210) 731-9957,12107319957,7979.156624,https://s3-media1.fl.yelpcdn.com/bphoto/yah9S8jjvyTYYI4HF0ou1w/o.jpg,FALSE,1136 W Hildebrand,,,San Antonio,TX,US,78201,3.5,7,[],https://www.yelp.com/biz/el-manantial-mexican-restaurant-san-antonio?adjust_creative=xtj4insboBfq4s67lBIAxA&utm_campaign=yelp_api_v3&utm_medium=api_v3_business_search&utm_source=xtj4insboBfq4s67lBIAxA
dfac-ft-sam-san-antonio,D-RIhR5nwIjptTQlR7fs4Q,DFAC - Ft Sam,cafeteria,Cafeteria,29.455025,-98.4472491,,,6972.262268,,FALSE,2745 Schofield Rd,,,San Antonio,TX,US,78234,3.5,3,[],https://www.yelp.com/biz/dfac-ft-sam-san-antonio?adjust_creative=xtj4insboBfq4s67lBIAxA&utm_campaign=yelp_api_v3&utm_medium=api_v3_business_search&utm_source=xtj4insboBfq4s67lBIAxA
hacinda-villarte-mexican-buffet-san-antonio,hvlJun8VeB3PLRlKwE4ixQ,Hacinda Villarte Mexican Buffet,mexican,Mexican,29.55342087,-98.51001084,(210) 520-8400,12105208400,6614.202591,https://s3-media3.fl.yelpcdn.com/bphoto/P3bGaHClL-u4eqfuSuCa0Q/o.jpg,FALSE,6810 NW Loop 410,,,San Antonio,TX,US,78238,3.5,51,[],https://www.yelp.com/biz/hacinda-villarte-mexican-buffet-san-antonio?adjust_creative=xtj4insboBfq4s67lBIAxA&utm_campaign=yelp_api_v3&utm_medium=api_v3_business_search&utm_source=xtj4insboBfq4s67lBIAxA
la-botana-grill-san-antonio-2,qmsGL_qSoUtM9xJnvFqFFA,La Botana Grill,mexican,Mexican,29.46665871,-98.51774796,(210) 600-4340,12106004340,8232.414269,https://s3-media2.fl.yelpcdn.com/bphoto/lqEIOUNlBD4THp4E7_eR3w/o.jpg,FALSE,1401 W Hildebrand Ave,,,San Antonio,TX,US,78201,3,8,[],https://www.yelp.com/biz/la-botana-grill-san-antonio-2?adjust_creative=xtj4insboBfq4s67lBIAxA&utm_campaign=yelp_api_v3&utm_medium=api_v3_business_search&utm_source=xtj4insboBfq4s67lBIAxA
wingstop-san-antonio-33,GXGQ_krDCiZYo3QDSZdHbQ,Wingstop,chicken_wings,Chicken Wings,29.4575,-98.55315,(210) 432-2019,12104322019,11540.42335,https://s3-media3.fl.yelpcdn.com/bphoto/uDYYi_YNncP0ey9APk7L_g/o.jpg,FALSE,3031 W Woodlawn Ave,Ste 107,,San Antonio,TX,US,78228,5,1,[],https://www.yelp.com/biz/wingstop-san-antonio-33?adjust_creative=xtj4insboBfq4s67lBIAxA&utm_campaign=yelp_api_v3&utm_medium=api_v3_business_search&utm_source=xtj4insboBfq4s67lBIAxA
schlotzskys-san-antonio-7,#NAME?,Schlotzsky's,delis,Delis,29.54849,-98.51087,(210) 366-0383,12103660383,6364.672026,https://s3-media2.fl.yelpcdn.com/bphoto/KJBM1O7v_P0AeNNpaVDm4w/o.jpg,FALSE,11803 Blanco Rd,,,San Antonio,TX,US,78216,3,18,"[u'pickup', u'delivery']",https://www.yelp.com/biz/schlotzskys-san-antonio-7?adjust_creative=xtj4insboBfq4s67lBIAxA&utm_campaign=yelp_api_v3&utm_medium=api_v3_business_search&utm_source=xtj4insboBfq4s67lBIAxA
cristans-tacos-san-antonio-5,dpxwVH9uXrinDI_8b-to9g,Cristan's Tacos,mexican,Mexican,29.5095196,-98.3802268,(210) 657-2211,12106572211,7370.995492,https://s3-media2.fl.yelpcdn.com/bphoto/7qF2jW3afWPbXF_4DAySww/o.jpg,FALSE,8054 Midcrown Dr,,,San Antonio,TX,US,78218,4,30,[],https://www.yelp.com/biz/cristans-tacos-san-antonio-5?adjust_creative=xtj4insboBfq4s67lBIAxA&utm_campaign=yelp_api_v3&utm_medium=api_v3_business_search&utm_source=xtj4insboBfq4s67lBIAxA
jack-in-the-box-san-antonio-50,kLMWbSu_s6q0c-tpteHVLw,Jack In the Box,newamerican,American (New),29.51662827,-98.42324829,(210) 653-0860,12106530860,3128.816507,https://s3-media1.fl.yelpcdn.com/bphoto/BdSsAXzpmh8wB3piIcNazQ/o.jpg,FALSE,2235 NE Loop 410,,,San Antonio,TX,US,78217,1,17,[u'delivery'],https://www.yelp.com/biz/jack-in-the-box-san-antonio-50?adjust_creative=xtj4insboBfq4s67lBIAxA&utm_campaign=yelp_api_v3&utm_medium=api_v3_business_search&utm_source=xtj4insboBfq4s67lBIAxA
dominos-pizza-san-antonio-27,QoSlrmHoutYS55P8VD1VGw,Domino's Pizza,pizza,Pizza,29.49544,-98.43524,(210) 828-7272,12108287272,3130.339875,https://s3-media1.fl.yelpcdn.com/bphoto/8Yl_X2Q01zsliJ3W9qGo3w/o.jpg,FALSE,3255 Harry Wurzbach Rd,,,San Antonio,TX,US,78209,3,18,[],https://www.yelp.com/biz/dominos-pizza-san-antonio-27?adjust_creative=xtj4insboBfq4s67lBIAxA&utm_campaign=yelp_api_v3&utm_medium=api_v3_business_search&utm_source=xtj4insboBfq4s67lBIAxA
tacos-el-amigo-san-antonio-2,SIY-fCXG9c8Io9yNNCBR5w,Tacos El Amigo,foodtrucks,Food Trucks,29.4924058,-98.5350137,,,8159.612313,https://s3-media2.fl.yelpcdn.com/bphoto/_FdJG0TGCClkwCaCc8lNOg/o.jpg,FALSE,12757 Nacogdoches,,,San Antonio,TX,US,78217,5,1,[],https://www.yelp.com/biz/tacos-el-amigo-san-antonio-2?adjust_creative=xtj4insboBfq4s67lBIAxA&utm_campaign=yelp_api_v3&utm_medium=api_v3_business_search&utm_source=xtj4insboBfq4s67lBIAxA
andreas-cafe-san-antonio,3czwtjqRfIfMYA95cnTajQ,Andrea's Cafe,mexican,Mexican,29.447506,-98.524414,(210) 609-6022,12106096022,10219.27762,https://s3-media1.fl.yelpcdn.com/bphoto/JXM6ClDpIRC2uyFbA9tZtg/o.jpg,FALSE,843 Waverly Ave,,,San Antonio,TX,US,78201,5,1,[],https://www.yelp.com/biz/andreas-cafe-san-antonio?adjust_creative=xtj4insboBfq4s67lBIAxA&utm_campaign=yelp_api_v3&utm_medium=api_v3_business_search&utm_source=xtj4insboBfq4s67lBIAxA
lubys-san-antonio-26,FhXOZjW695Ko60O2CXt_8w,Luby's,tradamerican,American (Traditional),29.4910695,-98.55346651,(210) 733-1972,12107331972,9900.939759,https://s3-media4.fl.yelpcdn.com/bphoto/JB6lvWMxc5TsZPW8fmaYJg/o.jpg,FALSE,4541 Fredericksburg Rd,,,San Antonio,TX,US,78201,3,39,[],https://www.yelp.com/biz/lubys-san-antonio-26?adjust_creative=xtj4insboBfq4s67lBIAxA&utm_campaign=yelp_api_v3&utm_medium=api_v3_business_search&utm_source=xtj4insboBfq4s67lBIAxA
dominos-pizza-san-antonio-2,OfD9hslF0Dz0tmgHa83now,Domino's Pizza,pizza,Pizza,29.50401,-98.49203,(210) 822-2021,12108222021,3829.699102,https://s3-media1.fl.yelpcdn.com/bphoto/sCb9nskAFe5zft8KNkRdXg/o.jpg,FALSE,7551 McCullough Ave,,,San Antonio,TX,US,78216,2.5,13,[],https://www.yelp.com/biz/dominos-pizza-san-antonio-2?adjust_creative=xtj4insboBfq4s67lBIAxA&utm_campaign=yelp_api_v3&utm_medium=api_v3_business_search&utm_source=xtj4insboBfq4s67lBIAxA
dairy-queen-san-antonio-4,Bp3khgZM4nLGevNudxZLBw,Dairy Queen,hotdogs,Fast Food,29.58711,-98.45234,(210) 545-2921,12105452921,7757.461448,https://s3-media1.fl.yelpcdn.com/bphoto/igMQ1Wd7JJUZCzpRGmMfmw/o.jpg,FALSE,2252 Thousand Oaks,,,San Antonio,TX,US,78232,2,28,[],https://www.yelp.com/biz/dairy-queen-san-antonio-4?adjust_creative=xtj4insboBfq4s67lBIAxA&utm_campaign=yelp_api_v3&utm_medium=api_v3_business_search&utm_source=xtj4insboBfq4s67lBIAxA
southern-gal-s-lakehills,ZSupYHEoqiVKLY81sFlAqg,Southern Gal’s,foodtrucks,Food Trucks,29.58474,-98.94917,(210) 219-0622,12102190622,48131.45128,https://s3-media3.fl.yelpcdn.com/bphoto/g9ss3s5YZ3FQcC2gvqm0Vw/o.jpg,FALSE,,,,Lakehills,TX,US,78063,5,3,[],https://www.yelp.com/biz/southern-gal-s-lakehills?adjust_creative=xtj4insboBfq4s67lBIAxA&utm_campaign=yelp_api_v3&utm_medium=api_v3_business_search&utm_source=xtj4insboBfq4s67lBIAxA
churchs-chicken-san-antonio-40,p-r_xb7f-sIS2bgmEzfN-A,Church's Chicken,chicken_wings,Chicken Wings,29.48881,-98.52547,(210) 344-1422,12103441422,7458.471098,https://s3-media4.fl.yelpcdn.com/bphoto/ZoBdWvexqvrynYaIlD8dNw/o.jpg,FALSE,2431 Basse Rd,,,San Antonio,TX,US,78213,3,5,[],https://www.yelp.com/biz/churchs-chicken-san-antonio-40?adjust_creative=xtj4insboBfq4s67lBIAxA&utm_campaign=yelp_api_v3&utm_medium=api_v3_business_search&utm_source=xtj4insboBfq4s67lBIAxA
el-jarrito-cafe-san-antonio,uLacriaJoGhN8f-F1t0TdA,El Jarrito Cafe,mexican,Mexican,29.465059,-98.50769,(210) 736-5357,12107365357,7691.64104,https://s3-media4.fl.yelpcdn.com/bphoto/rAICY33pLiFXHvcprB8iYQ/o.jpg,FALSE,2014 Blanco Rd,,,San Antonio,TX,US,78212,3.5,3,[],https://www.yelp.com/biz/el-jarrito-cafe-san-antonio?adjust_creative=xtj4insboBfq4s67lBIAxA&utm_campaign=yelp_api_v3&utm_medium=api_v3_business_search&utm_source=xtj4insboBfq4s67lBIAxA
deco-pizzeria-san-antonio,BvE4wFP8pY5L9nUcAOBk-A,Deco Pizzeria,pizza,Pizza,29.46148,-98.5233,(210) 732-3326,12107323326,9020.334688,https://s3-media2.fl.yelpcdn.com/bphoto/CJ_eKe69ogq5qsTGjN61fA/o.jpg,FALSE,1815 Fredericksburg Rd,,,San Antonio,TX,US,78201,3.5,147,"[u'pickup', u'delivery']",https://www.yelp.com/biz/deco-pizzeria-san-antonio?adjust_creative=xtj4insboBfq4s67lBIAxA&utm_campaign=yelp_api_v3&utm_medium=api_v3_business_search&utm_source=xtj4insboBfq4s67lBIAxA
pizza-patron-san-antonio-3,Bzjx8tJ_O0y6Afjj3aH-mw,Pizza Patron,italian,Italian,29.487088,-98.526713,(210) 341-5100,12103415100,7649.684783,https://s3-media2.fl.yelpcdn.com/bphoto/G9RwxDBpTJyKEsyX0kkHKw/o.jpg,FALSE,2913 W Ave,,,San Antonio,TX,US,78201,5,1,[],https://www.yelp.com/biz/pizza-patron-san-antonio-3?adjust_creative=xtj4insboBfq4s67lBIAxA&utm_campaign=yelp_api_v3&utm_medium=api_v3_business_search&utm_source=xtj4insboBfq4s67lBIAxA
la-reina-de-jalisco-san-antonio,rbmr87U6nUZMtFZvvzXVGg,La Reina De Jalisco,mexican,Mexican,29.56902757,-98.38392891,(210) 505-8152,12105058152,9121.270199,https://s3-media1.fl.yelpcdn.com/bphoto/1Eyc1SpnyQQxjyqro-19cA/o.jpg,FALSE,14040 Nacogdoches Rd,,,San Antonio,TX,US,78247,3,1,[],https://www.yelp.com/biz/la-reina-de-jalisco-san-antonio?adjust_creative=xtj4insboBfq4s67lBIAxA&utm_campaign=yelp_api_v3&utm_medium=api_v3_business_search&utm_source=xtj4insboBfq4s67lBIAxA
taco-cabana-san-antonio-6,VqJutL53N5ky0bbkoVuVVg,Taco Cabana,mexican,Mexican,29.48362732,-98.4006958,(210) 666-5236,12106665236,6502.876072,https://s3-media1.fl.yelpcdn.com/bphoto/vcWd5B2txDEdkp3Hz1X2rQ/o.jpg,FALSE,4622 Rittiman Rd,,,San Antonio,TX,US,78218,2.5,23,[],https://www.yelp.com/biz/taco-cabana-san-antonio-6?adjust_creative=xtj4insboBfq4s67lBIAxA&utm_campaign=yelp_api_v3&utm_medium=api_v3_business_search&utm_source=xtj4insboBfq4s67lBIAxA
sergios-molino-san-antonio,YHJqEy1CwqrPcIFIu2aGJw,Sergio's Molino,mexican,Mexican,29.43531831,-98.51181343,(210) 224-2122,12102242122,10611.34128,https://s3-media1.fl.yelpcdn.com/bphoto/IPlSDaWzznmOuUbyJcqcwg/o.jpg,FALSE,641 Ruiz St,,,San Antonio,TX,US,78207,1,2,[],https://www.yelp.com/biz/sergios-molino-san-antonio?adjust_creative=xtj4insboBfq4s67lBIAxA&utm_campaign=yelp_api_v3&utm_medium=api_v3_business_search&utm_source=xtj4insboBfq4s67lBIAxA
fitzgeralds-bar-and-live-music-san-antonio,YJ9XEemh8s0qFe2Bdar81A,Fitzgerald's Bar & Live Music,bars,Bars,29.5288216,-98.4989249,(210) 607-7007,12106077007,4374.640501,https://s3-media2.fl.yelpcdn.com/bphoto/0_Dmagx46Tn0CiXv23qQEA/o.jpg,FALSE,437 McCarty Rd,Ste 101,,San Antonio,TX,US,78216,3.5,12,[],https://www.yelp.com/biz/fitzgeralds-bar-and-live-music-san-antonio?adjust_creative=xtj4insboBfq4s67lBIAxA&utm_campaign=yelp_api_v3&utm_medium=api_v3_business_search&utm_source=xtj4insboBfq4s67lBIAxA
china-harbor-restaurant-san-antonio,Ft7xDINUXvnqTF4pi1yOAw,China Harbor Restaurant,chinese,Chinese,29.601299,-98.471626,(210) 494-6688,12104946688,9466.944855,https://s3-media2.fl.yelpcdn.com/bphoto/RX1PdGv44JDeUJAna3fwbQ/o.jpg,FALSE,17333 San Pedro Ave,,,San Antonio,TX,US,78232,2.5,125,[],https://www.yelp.com/biz/china-harbor-restaurant-san-antonio?adjust_creative=xtj4insboBfq4s67lBIAxA&utm_campaign=yelp_api_v3&utm_medium=api_v3_business_search&utm_source=xtj4insboBfq4s67lBIAxA
jims-restaurants-san-antonio-31,xIbOudvBkjHTAXwHBu5ODg,Jim's Restaurants,diners,Diners,29.4643,-98.46423,(210) 828-5120,12108285120,5964.841082,https://s3-media1.fl.yelpcdn.com/bphoto/Wv1yiY4XGOeCCGKxKsYagA/o.jpg,FALSE,4108 Broadway St,,,San Antonio,TX,US,78209,3,48,[],https://www.yelp.com/biz/jims-restaurants-san-antonio-31?adjust_creative=xtj4insboBfq4s67lBIAxA&utm_campaign=yelp_api_v3&utm_medium=api_v3_business_search&utm_source=xtj4insboBfq4s67lBIAxA
sizzling-wok-san-antonio,ieB9EfDTJ_Qmatifr7NXxA,Sizzling Wok,chinese,Chinese,29.60154962,-98.46743219,(210) 495-3888,12104953888,9437.136374,https://s3-media1.fl.yelpcdn.com/bphoto/bcZtGDHgjj7sIXcHx_AKqg/o.jpg,FALSE,17700 San Pedro Ave,Ste 430,,San Antonio,TX,US,78232,4,104,"[u'pickup', u'delivery']",https://www.yelp.com/biz/sizzling-wok-san-antonio?adjust_creative=xtj4insboBfq4s67lBIAxA&utm_campaign=yelp_api_v3&utm_medium=api_v3_business_search&utm_source=xtj4insboBfq4s67lBIAxA
saritas-restaurant-san-antonio,2KXB0-S4Udk9J4FVH-FVDQ,Saritas Restaurant,mexican,Mexican,29.5421586,-98.5292408,(210) 344-2400,12103442400,7626.487665,https://s3-media2.fl.yelpcdn.com/bphoto/qN6zU9iGVfmM8XZnV_gPsA/o.jpg,FALSE,2235 Lockhill Selma Rd,,,San Antonio,TX,US,78230,3,51,[],https://www.yelp.com/biz/saritas-restaurant-san-antonio?adjust_creative=xtj4insboBfq4s67lBIAxA&utm_campaign=yelp_api_v3&utm_medium=api_v3_business_search&utm_source=xtj4insboBfq4s67lBIAxA
camilas-mexican-restaurant-san-antonio-2,RtbWybL78ju9Hz0ZQgvmQQ,Camila's Mexican Restaurant,mexican,Mexican,29.5879713,-98.4504332,(210) 404-2929,12104042929,7875.250767,https://s3-media4.fl.yelpcdn.com/bphoto/9WnI2jtXgfZlfu0nr1CN7A/o.jpg,FALSE,16075 Henderson Pass,,,San Antonio,TX,US,78232,4,63,[],https://www.yelp.com/biz/camilas-mexican-restaurant-san-antonio-2?adjust_creative=xtj4insboBfq4s67lBIAxA&utm_campaign=yelp_api_v3&utm_medium=api_v3_business_search&utm_source=xtj4insboBfq4s67lBIAxA
wing-zone-san-antonio-6,SdxaRNwD8dVlgQPp4ZgU-Q,Wing Zone,salad,Salad,29.49501,-98.43291,(210) 960-9527,12109609527,3338.877122,,FALSE,1533 Austin Hwy,Ste 100,,San Antonio,TX,US,78218,5,1,[],https://www.yelp.com/biz/wing-zone-san-antonio-6?adjust_creative=xtj4insboBfq4s67lBIAxA&utm_campaign=yelp_api_v3&utm_medium=api_v3_business_search&utm_source=xtj4insboBfq4s67lBIAxA
dennys-san-antonio-8,H8jm8sXK0ZtJaMsVo3ZPyg,Denny's,diners,Diners,29.48282407,-98.35704707,(210) 661-7993,12106617993,10287.87416,https://s3-media1.fl.yelpcdn.com/bphoto/KJg5mToIXQT-XPYq1Cy3xg/o.jpg,FALSE,6703 Fm78,,,San Antonio,TX,US,78244,4,40,[],https://www.yelp.com/biz/dennys-san-antonio-8?adjust_creative=xtj4insboBfq4s67lBIAxA&utm_campaign=yelp_api_v3&utm_medium=api_v3_business_search&utm_source=xtj4insboBfq4s67lBIAxA
little-caesars-pizza-san-antonio-2,WwVD6SAlrgKDZoxeF8Kxeg,Little Caesars Pizza,pizza,Pizza,29.488264,-98.508155,(210) 734-7131,12107347131,6021.609295,https://s3-media3.fl.yelpcdn.com/bphoto/TR2AIXKZZySos1WVR55iFA/o.jpg,FALSE,4431 Blanco Rd,,,San Antonio,TX,US,78212,3,6,[],https://www.yelp.com/biz/little-caesars-pizza-san-antonio-2?adjust_creative=xtj4insboBfq4s67lBIAxA&utm_campaign=yelp_api_v3&utm_medium=api_v3_business_search&utm_source=xtj4insboBfq4s67lBIAxA
north-star-cafe-san-antonio-2,TyhAsPq81wZsxnr6AmdPJw,North Star Cafe,cafes,Cafes,29.51838,-98.49789,(210) 348-8783,12103488783,3928.4724,https://s3-media4.fl.yelpcdn.com/bphoto/Zp2YBmuXFY0wzGY7HcZmkQ/o.jpg,FALSE,7400 San Pedro Ave,,,San Antonio,TX,US,78216,4,1,[],https://www.yelp.com/biz/north-star-cafe-san-antonio-2?adjust_creative=xtj4insboBfq4s67lBIAxA&utm_campaign=yelp_api_v3&utm_medium=api_v3_business_search&utm_source=xtj4insboBfq4s67lBIAxA
arbys-san-antonio-20,TXLCr4K63OS60zyzznYNBw,Arby's,hotdogs,Fast Food,29.56597,-98.38848,(210) 655-1503,12106551503,8461.171417,https://s3-media2.fl.yelpcdn.com/bphoto/_Y6x67JR0El-dwLnnKSKnA/o.jpg,FALSE,13623 Nacogdoches Rd,,,San Antonio,TX,US,78217,4,5,[],https://www.yelp.com/biz/arbys-san-antonio-20?adjust_creative=xtj4insboBfq4s67lBIAxA&utm_campaign=yelp_api_v3&utm_medium=api_v3_business_search&utm_source=xtj4insboBfq4s67lBIAxA
dennys-san-antonio-20,Gg2fa6y78F1WoxLQLA6vrQ,Denny's,diners,Diners,29.51863002,-98.50728437,(210) 349-5952,12103495952,4993.981702,https://s3-media2.fl.yelpcdn.com/bphoto/IiVb94ejk33sr1l3n4F98Q/o.jpg,FALSE,6801 Blanco Rd,,,San Antonio,TX,US,78216,2.5,48,"[u'pickup', u'delivery']",https://www.yelp.com/biz/dennys-san-antonio-20?adjust_creative=xtj4insboBfq4s67lBIAxA&utm_campaign=yelp_api_v3&utm_medium=api_v3_business_search&utm_source=xtj4insboBfq4s67lBIAxA
jimmy-johns-san-antonio,oGtLKfR7Pdlr-CBYz8__8g,Jimmy John's,sandwiches,Sandwiches,29.49343681,-98.43566895,(210) 822-2277,12108222277,3264.162829,https://s3-media3.fl.yelpcdn.com/bphoto/c3TQDJLkbI15ooKK5x2ndg/o.jpg,FALSE,1455 Austin Hwy,,,San Antonio,TX,US,78209,3,32,[],https://www.yelp.com/biz/jimmy-johns-san-antonio?adjust_creative=xtj4insboBfq4s67lBIAxA&utm_campaign=yelp_api_v3&utm_medium=api_v3_business_search&utm_source=xtj4insboBfq4s67lBIAxA
tacos-el-guero-san-antonio,yRZvSkgMQJq7sJrcBdVX0Q,Tacos El Guero,mexican,Mexican,29.44663,-98.49395,,,8685.130092,https://s3-media3.fl.yelpcdn.com/bphoto/JS0yKGtD1gPuCHDxN5lT6g/o.jpg,FALSE,1812 N Main St,,,San Antonio,TX,US,78212,5,10,[],https://www.yelp.com/biz/tacos-el-guero-san-antonio?adjust_creative=xtj4insboBfq4s67lBIAxA&utm_campaign=yelp_api_v3&utm_medium=api_v3_business_search&utm_source=xtj4insboBfq4s67lBIAxA
dairy-queen-san-antonio-22,rBPrJyBluFDSKWa7dZ45sw,Dairy Queen,icecream,Ice Cream & Frozen Yogurt,29.547232,-98.507321,(210) 349-2995,12103492995,6002.246128,https://s3-media4.fl.yelpcdn.com/bphoto/d91IvYO1TGPvIYhm3M5nYw/o.jpg,FALSE,11734 West Ave,,,San Antonio,TX,US,78216,2.5,22,[],https://www.yelp.com/biz/dairy-queen-san-antonio-22?adjust_creative=xtj4insboBfq4s67lBIAxA&utm_campaign=yelp_api_v3&utm_medium=api_v3_business_search&utm_source=xtj4insboBfq4s67lBIAxA
big-johns-pizza-san-antonio-3,ZQtwdGBW9YqjW0CIKAzL3Q,Big John's Pizza,pizza,Pizza,29.50851026,-98.55456233,(210) 348-9775,12103489775,9616.702395,https://s3-media3.fl.yelpcdn.com/bphoto/9tQJLCdJX7quDo3tx1yhvg/o.jpg,FALSE,7806 Callaghan Rd,,,San Antonio,TX,US,78229,3.5,74,"[u'pickup', u'delivery']",https://www.yelp.com/biz/big-johns-pizza-san-antonio-3?adjust_creative=xtj4insboBfq4s67lBIAxA&utm_campaign=yelp_api_v3&utm_medium=api_v3_business_search&utm_source=xtj4insboBfq4s67lBIAxA
mr-dannys-mexican-grill-san-antonio-2,ZJ_kpPk9OdElwVQjBbM0bA,Mr. Dannys Mexican Grill,mexican,Mexican,29.54134449,-98.52779388,(210) 267-5027,12102675027,7515.654445,,FALSE,2313 N W Military Dr,,,San Antonio,TX,US,78230,1,1,[],https://www.yelp.com/biz/mr-dannys-mexican-grill-san-antonio-2?adjust_creative=xtj4insboBfq4s67lBIAxA&utm_campaign=yelp_api_v3&utm_medium=api_v3_business_search&utm_source=xtj4insboBfq4s67lBIAxA
ihop-san-antonio-2,XjhdonSF7xSSYwnrvBhPEA,IHOP,breakfast_brunch,Breakfast & Brunch,29.46184,-98.46592,(210) 824-8113,12108248113,6245.261561,https://s3-media3.fl.yelpcdn.com/bphoto/kcBC0HXzUK0HPJmyd9erqg/o.jpg,FALSE,3820 Broadway,,,San Antonio,TX,US,78209,2,50,[],https://www.yelp.com/biz/ihop-san-antonio-2?adjust_creative=xtj4insboBfq4s67lBIAxA&utm_campaign=yelp_api_v3&utm_medium=api_v3_business_search&utm_source=xtj4insboBfq4s67lBIAxA
bill-miller-bar-b-q-san-antonio-4,Nd0Ga9UxGOE7fEk8RyngzQ,Bill Miller Bar-B-Q,bbq,Barbeque,29.510723,-98.388385,(210) 656-6262,12106566262,6554.274893,https://s3-media2.fl.yelpcdn.com/bphoto/veeAyp4SpD6UiNGCuBo2_g/o.jpg,FALSE,5113 Walzem Rd,,,San Antonio,TX,US,78218,3,25,[],https://www.yelp.com/biz/bill-miller-bar-b-q-san-antonio-4?adjust_creative=xtj4insboBfq4s67lBIAxA&utm_campaign=yelp_api_v3&utm_medium=api_v3_business_search&utm_source=xtj4insboBfq4s67lBIAxA
little-caesars-san-antonio-3,7ZLrVkMx02J20_IVA1hjvA,Little Caesars,pizza,Pizza,29.51299,-98.4658,(210) 832-8655,12108328655,1088.167748,https://s3-media1.fl.yelpcdn.com/bphoto/tKdExheRYLW4eJcUriXrGg/o.jpg,FALSE,8238 Broadway St,,,San Antonio,TX,US,78209,2,9,[],https://www.yelp.com/biz/little-caesars-san-antonio-3?adjust_creative=xtj4insboBfq4s67lBIAxA&utm_campaign=yelp_api_v3&utm_medium=api_v3_business_search&utm_source=xtj4insboBfq4s67lBIAxA
bushs-chicken-san-antonio-9,DAvYiIHSKnrdDojk8_pKEQ,Bushs Chicken,hotdogs,Fast Food,29.51029968,-98.38139343,(210) 637-8358,12106378358,7231.919716,https://s3-media2.fl.yelpcdn.com/bphoto/uraX4R2AGwQoj4K0ywY-rg/o.jpg,FALSE,3522 Walzem,,,San Antonio,TX,US,78218,2.5,14,[],https://www.yelp.com/biz/bushs-chicken-san-antonio-9?adjust_creative=xtj4insboBfq4s67lBIAxA&utm_campaign=yelp_api_v3&utm_medium=api_v3_business_search&utm_source=xtj4insboBfq4s67lBIAxA
oasis-cafe-san-antonio,ogxQGNJdPyf752iEWUoDbA,Oasis Cafe,cafes,Cafes,29.4276775,-98.4939549,(210) 223-7077,12102237077,10592.74542,https://s3-media4.fl.yelpcdn.com/bphoto/XaSepMLXwfDw_ortOVB3Aw/o.jpg,FALSE,323 N Main Ave,,,San Antonio,TX,US,78205,4,73,[],https://www.yelp.com/biz/oasis-cafe-san-antonio?adjust_creative=xtj4insboBfq4s67lBIAxA&utm_campaign=yelp_api_v3&utm_medium=api_v3_business_search&utm_source=xtj4insboBfq4s67lBIAxA
el-puesto-la-tejanita-windcrest,uOZdBY89ennIb7Q786daBw,El Puesto La Tejanita,mexican,Mexican,29.52397703,-98.38813167,(210) 599-8121,12105998121,6579.568145,https://s3-media3.fl.yelpcdn.com/bphoto/KWZ65dkFbiylO5wQRdwn1Q/o.jpg,FALSE,5121 Crestway Dr,Ste 388,,Windcrest,TX,US,78239,2.5,3,[],https://www.yelp.com/biz/el-puesto-la-tejanita-windcrest?adjust_creative=xtj4insboBfq4s67lBIAxA&utm_campaign=yelp_api_v3&utm_medium=api_v3_business_search&utm_source=xtj4insboBfq4s67lBIAxA
bill-miller-bar-b-q-san-antonio-2,NGDuJGANhLQlwf6qHySWjg,Bill Miller Bar-B-Q,bbq,Barbeque,29.48357,-98.40568,(210) 654-8888,12106548888,6127.287557,https://s3-media2.fl.yelpcdn.com/bphoto/xCi9nahNW_oaNB-cGtpnzg/o.jpg,FALSE,4502 Rittiman Rd,,,San Antonio,TX,US,78218,2.5,26,[],https://www.yelp.com/biz/bill-miller-bar-b-q-san-antonio-2?adjust_creative=xtj4insboBfq4s67lBIAxA&utm_campaign=yelp_api_v3&utm_medium=api_v3_business_search&utm_source=xtj4insboBfq4s67lBIAxA
